<?xml version="1.0" encoding="UTF-8" standalone="no" ?><gpx xmlns="http://www.topografix.com/GPX/1/1" xmlns:gpxx="http://www.garmin.com/xmlschemas/GpxExtensions/v3" xmlns:wptx1="http://www.garmin.com/xmlschemas/WaypointExtension/v1" xmlns:gpxtpx="http://www.garmin.com/xmlschemas/TrackPointExtension/v1" creator="GPSMAP 62s" version="1.1" xmlns:xsi="http://www.w3.org/2001/XMLSchema-instance" xsi:schemaLocation="http://www.topografix.com/GPX/1/1 http://www.topografix.com/GPX/1/1/gpx.xsd http://www.garmin.com/xmlschemas/GpxExtensions/v3 http://www8.garmin.com/xmlschemas/GpxExtensionsv3.xsd http://www.garmin.com/xmlschemas/TrackStatsExtension/v1 http://www8.garmin.com/xmlschemas/TrackStatsExtension.xsd http://www.garmin.com/xmlschemas/WaypointExtension/v1 http://www8.garmin.com/xmlschemas/WaypointExtensionv1.xsd http://www.garmin.com/xmlschemas/TrackPointExtension/v1 http://www.garmin.com/xmlschemas/TrackPointExtensionv1.xsd"><metadata><link href="http://www.garmin.com"><text>Garmin International</text></link><time>2020-07-17T02:59:29Z</time></metadata><wpt lat="43.234128" lon="42.714551"><ele>3436.685303</ele><time>2020-07-17T02:59:29Z</time><name>СТ12</name><sym>Light</sym></wpt><wpt lat="43.227861" lon="42.705358"><ele>3068.103027</ele><time>2020-07-17T03:31:29Z</time><name>СНОВА НАТРОПЕ</name><sym>Light</sym></wpt><wpt lat="43.218591" lon="42.694845"><ele>2303.787842</ele><time>2020-07-17T05:55:59Z</time><name>ДОРОГА</name><sym>Light</sym></wpt><wpt lat="43.231194" lon="42.651359"><ele>1945.676880</ele><time>2020-07-17T07:11:21Z</time><name>ПП2</name><sym>Light</sym></wpt><wpt lat="43.243360" lon="42.638270"><ele>1834.242554</ele><time>2020-07-17T08:08:40Z</time><name>ПЕРЕКУС</name><sym>Light</sym></wpt><wpt lat="43.244133" lon="42.596590"><ele>1894.446045</ele><time>2020-07-17T09:20:37Z</time><name>ОБЕД13</name><sym>Light</sym></wpt><wpt lat="43.245051" lon="42.587461"><ele>1913.396973</ele><time>2020-07-17T12:05:39Z</time><name>РУЧЕЙ</name><sym>Light</sym></wpt><wpt lat="43.251703" lon="42.514593"><ele>2125.767090</ele><time>2020-07-17T14:04:45Z</time><name>МОСТ</name><sym>Light</sym></wpt><wpt lat="43.258646" lon="42.504204"><ele>2193.143066</ele><time>2020-07-17T14:36:44Z</time><name>БИВУАК КЕМПИНГ</name><sym>Light</sym></wpt></gpx>